,City,Cloudiness,Country,Date,Humidity,Latitude,Longitude,Max Temperature,Wind Speed
0,Mataura,0,NZ,1592518526,83,-46.19,168.86,39.0,3.0
1,Biltine,12,TD,1592518527,53,14.53,20.92,79.66,17.36
2,Mar del Plata,40,AR,1592518528,87,-38.0,-57.56,54.0,8.05
3,Punta Arenas,90,CL,1592518529,86,-53.15,-70.92,39.2,14.99
4,Fortuna,20,US,1592518366,68,40.6,-124.16,68.0,12.75
5,Carnarvon,0,AU,1592518532,76,-24.87,113.63,57.2,11.41
6,Bredasdorp,0,ZA,1592518533,93,-34.53,20.04,44.6,5.08
7,Dikson,90,RU,1592518534,98,73.51,80.55,32.94,17.05
8,Stargard,90,PL,1592518535,93,53.34,15.05,59.0,8.05
9,Farakka,97,IN,1592518536,87,24.82,87.9,81.81,2.55
10,Wanning,69,CN,1592518538,89,18.8,110.4,80.91,8.55
11,Puerto Ayora,75,EC,1592518539,51,-0.74,-90.35,82.4,20.8
12,Cape Town,0,ZA,1592518540,44,-33.93,18.42,63.0,3.36
13,Lüderitz,0,NA,1592518414,30,-26.65,15.16,71.6,8.05
14,Rikitea,100,PF,1592518542,85,-23.12,-134.97,75.67,15.82
15,Kavieng,21,PG,1592518543,71,-2.57,150.8,83.32,3.85
16,George Town,20,MY,1592518544,94,5.41,100.34,80.6,4.7
17,Dunedin,58,NZ,1592518546,76,-45.87,170.5,45.0,10.0
18,Monster,81,NL,1592518418,89,52.03,4.17,61.0,1.01
19,East London,0,ZA,1592518309,67,-33.02,27.91,63.41,15.01
20,Namie,99,JP,1592518312,94,37.48,141.0,66.0,1.21
21,Mongoumba,90,CF,1592518550,82,3.64,18.59,72.25,2.08
22,Jamestown,20,US,1592518551,39,42.1,-79.24,80.6,9.17
23,Ulaanbaatar,40,MN,1592518454,81,47.91,106.88,53.6,2.24
24,New Norfolk,100,AU,1592518554,87,-42.78,147.06,39.0,2.17
25,Emba,50,KZ,1592518555,57,48.83,58.14,65.88,8.16
26,Hailar,75,CN,1592518556,81,49.2,119.7,60.55,3.94
27,Ust-Maya,0,RU,1592518557,62,60.42,134.53,65.12,5.75
28,Alakurtti,100,RU,1592518559,88,66.97,30.35,57.02,1.5
29,Port-Gentil,90,GA,1592518446,88,-0.72,8.78,77.0,5.82
30,Saint-Philippe,75,RE,1592518301,77,-21.36,55.77,71.6,23.04
31,Pevek,23,RU,1592518327,70,69.7,170.31,41.27,9.01
32,Barrow,1,US,1592518502,65,71.29,-156.79,46.4,8.05
33,Cayenne,40,GF,1592518564,83,4.93,-52.33,80.6,4.7
34,Cherskiy,0,RU,1592518565,30,68.75,161.3,74.16,8.41
35,Conway,40,US,1592518439,43,35.09,-92.44,88.0,5.82
36,Ushuaia,22,AR,1592518294,69,-54.8,-68.3,35.6,4.7
37,Vaini,20,TO,1592518569,78,-21.2,-175.2,75.2,11.41
38,Tevaitoa,93,PF,1592518570,77,-16.78,-151.5,80.53,0.89
39,Imeni Poliny Osipenko,99,RU,1592518326,92,52.42,136.49,46.53,10.42
40,Busselton,46,AU,1592518340,98,-33.65,115.33,37.99,3.27
41,Arrondissement de Saintes,36,FR,1592518573,82,45.67,-0.75,57.2,3.36
42,Srednekolymsk,18,RU,1592518575,19,67.45,153.68,84.52,5.48
43,Upernavik,0,GL,1592518576,81,72.79,-56.15,36.43,11.7
44,Port Alfred,0,ZA,1592518577,53,-33.59,26.89,62.33,12.41
45,Peniche,0,PT,1592518578,83,39.36,-9.38,63.0,8.01
46,Bukachacha,8,RU,1592518326,89,52.98,116.92,53.83,2.8
47,Hermanus,0,ZA,1592518580,79,-34.42,19.23,51.01,1.99
48,Zhigansk,16,RU,1592518581,59,66.77,123.37,66.16,5.61
49,Terney,95,RU,1592518583,89,45.05,136.61,50.99,4.21
50,Avarua,73,CK,1592518361,64,-21.21,-159.78,75.2,10.29
51,Kapaa,90,US,1592518585,83,22.08,-159.32,79.0,18.34
52,Ayan,70,RU,1592518586,89,56.45,138.17,44.92,2.04
53,Butaritari,99,KI,1592518587,60,3.07,172.79,83.32,1.5
54,Kaitangata,16,NZ,1592518588,65,-46.28,169.85,46.0,1.99
55,Qaanaaq,0,GL,1592518589,86,77.48,-69.36,34.61,2.01
56,Hilo,75,US,1592518296,58,19.73,-155.09,82.4,9.17
57,Nāgamangala,100,IN,1592518592,83,12.82,76.76,71.58,8.37
58,San Cristobal,75,VE,1592518593,88,7.77,-72.22,77.0,12.75
59,Cidreira,87,BR,1592518594,88,-30.18,-50.21,68.34,8.9
60,Bluff,0,NZ,1592518595,83,-46.6,168.33,39.0,3.0
61,Kandalaksha,100,RU,1592518596,90,67.16,32.41,55.08,3.18
62,Texarkana,20,US,1592518578,46,33.43,-94.05,89.6,11.41
63,Tuktoyaktuk,40,CA,1592518599,81,69.45,-133.04,44.6,9.17
64,Adrar,61,MR,1592518346,16,20.5,-10.07,98.87,15.28
65,Te Anau,17,NZ,1592518402,90,-45.42,167.72,33.66,1.66
66,Hobart,75,AU,1592518359,93,-42.88,147.33,39.2,6.93
67,Mugumu,62,TZ,1592518603,82,-1.85,34.7,59.59,2.55
68,Albany,56,US,1592518604,51,42.6,-73.97,87.01,1.01
69,Yenagoa,100,NG,1592518606,94,4.92,6.26,74.07,4.12
70,Tiksi,100,RU,1592518607,74,71.69,128.87,52.12,2.48
71,Tamale,79,GH,1592518608,81,9.4,-0.84,76.01,11.56
72,Torbay,90,CA,1592518609,68,47.67,-52.73,66.99,13.87
73,Shimoda,100,JP,1592518610,95,34.67,138.95,59.0,1.99
74,Ribeira Grande,75,PT,1592518373,88,38.52,-28.7,64.4,5.82
75,Imbituba,20,BR,1592518384,73,-28.24,-48.67,71.6,14.99
76,Nyurba,27,RU,1592518614,83,63.28,118.33,56.55,3.89
77,Ambulu,10,ID,1592518615,87,-8.35,113.61,75.38,4.76
78,Deniliquin,8,AU,1592518616,82,-35.53,144.97,53.01,10.87
79,Coahuayana Viejo,40,MX,1592518617,52,18.73,-103.68,89.6,17.22
80,Cabo San Lucas,20,MX,1592518619,30,22.89,-109.91,93.2,9.17
81,Santa Rosa,75,PH,1592518620,83,14.31,121.11,82.4,4.7
82,Bambous Virieux,75,MU,1592518621,83,-20.34,57.76,70.0,13.87
83,Lesnoy,0,RU,1592518622,74,57.62,63.08,39.72,3.47
84,Tuy Hoa,61,VN,1592518386,85,13.08,109.3,78.15,4.99
85,Ponta do Sol,20,PT,1592518624,73,32.67,-17.1,69.8,8.05
86,Bantou,100,CN,1592518625,83,26.22,117.49,77.0,1.95
87,Agadez,16,NE,1592518627,15,19.75,10.25,87.21,4.7
88,‘Āhuimanu,75,US,1592518628,46,21.44,-157.84,91.4,14.99
89,Chokurdakh,68,RU,1592518365,34,70.63,147.92,78.93,5.17
90,Ostrovnoy,100,RU,1592518361,84,68.05,39.51,46.89,13.31
91,Nikolskoye,75,RU,1592518370,77,59.7,30.79,66.2,2.24
92,Hithadhoo,91,MV,1592518632,75,-0.6,73.08,84.38,9.62
93,Hofn,0,IS,1592518633,86,64.25,-15.21,49.26,2.84
94,Kruisfontein,0,ZA,1592518634,43,-34.0,24.73,56.86,6.76
95,Rawson,96,AR,1592518636,48,-43.3,-65.1,56.12,16.42
96,Buin,75,CL,1592518637,81,-33.73,-70.75,51.8,2.55
97,Hong Kong,65,HK,1592518398,79,22.29,114.16,84.0,5.01
98,Horta,75,PT,1592518639,88,38.53,-28.63,64.4,5.82
99,Port Elizabeth,0,ZA,1592518640,87,-33.92,25.57,50.0,9.4
100,Quang Ngai,25,VN,1592518641,84,15.12,108.8,77.18,3.49
101,Belaya Gora,38,RU,1592518643,22,68.53,146.42,85.37,6.67
102,Sharkan,0,RU,1592518644,87,57.3,53.87,45.0,1.74
103,Port Lincoln,70,AU,1592518645,85,-34.73,135.87,56.73,18.9
104,Kaeo,7,NZ,1592518646,3,-35.1,173.78,54.0,10.04
105,Hashtrūd,0,IR,1592518647,46,37.48,47.05,62.44,2.98
106,Paamiut,56,GL,1592518649,83,61.99,-49.67,39.61,16.37
107,Tiarei,75,PF,1592518650,78,-17.53,-149.33,82.0,3.36
108,Leningradskiy,55,RU,1592518651,58,69.38,178.42,45.63,6.69
109,Harper,100,LR,1592518652,78,4.38,-7.72,78.42,11.5
110,Saint-Paul,69,RE,1592518432,64,-21.01,55.27,71.6,23.04
111,Sitka,90,US,1592518654,93,57.05,-135.33,53.6,5.82
112,Constitución,100,CL,1592518656,90,-35.33,-72.42,55.24,27.13
113,Atar,0,MR,1592518471,17,20.52,-13.05,98.31,9.71
114,Gawler,0,AU,1592518658,57,-34.6,138.73,57.99,13.0
115,Wau,100,SS,1592518659,89,7.7,28.0,70.02,3.4
116,Kaseda-shirakame,75,JP,1592518660,91,31.42,130.32,75.2,13.87
117,Atuona,13,PF,1592518662,75,-9.8,-139.03,80.24,11.88
118,Tocopilla,77,CL,1592518663,64,-22.09,-70.2,62.85,1.01
119,Kampot,20,KH,1592518664,88,10.62,104.18,80.6,4.7
120,Moree,0,AU,1592518665,87,-29.47,149.85,48.2,10.29
121,Coolum Beach,24,AU,1592518666,87,-26.53,153.1,61.0,1.99
122,Saskylakh,10,RU,1592518668,49,71.92,114.08,69.73,7.78
123,Khatanga,66,RU,1592518669,57,71.97,102.5,52.99,11.05
124,Sistranda,20,NO,1592518670,87,63.73,8.83,53.6,2.24
125,Evensk,78,RU,1592518671,77,61.95,159.23,54.05,6.11
126,Waipawa,100,NZ,1592518672,93,-41.41,175.52,53.01,20.8
127,Puerto Madryn,99,AR,1592518435,48,-42.77,-65.04,57.34,23.2
128,Riyadh,59,SA,1592518663,14,24.69,46.72,87.8,5.82
129,Lebu,100,CL,1592518676,88,-37.62,-73.65,54.46,14.36
130,Castro,100,BR,1592518677,94,-24.79,-50.01,58.06,4.47
131,Christchurch,100,NZ,1592518517,100,-43.53,172.63,45.0,13.87
132,Barcelos,0,PT,1592518444,87,41.54,-8.62,60.01,9.17
133,Bandarbeyla,70,SO,1592518389,72,9.49,50.81,80.19,30.71
134,Marawi,93,PH,1592518681,94,8.0,124.29,73.0,5.99
135,Codrington,66,AU,1592518683,75,-38.27,141.97,50.68,15.48
136,Santa Maria da Boa Vista,50,BR,1592518684,65,-8.81,-39.83,77.63,12.97
137,Linkou,0,CN,1592518685,80,45.3,130.28,56.61,1.9
138,Uppsala County,0,SE,1592518538,87,60.0,17.75,60.8,2.24
139,Yellowknife,5,CA,1592518687,42,62.46,-114.35,66.0,18.34
140,Saint Paul Harbor,1,US,1592518689,81,57.79,-152.41,51.8,12.75
141,Myingyan,99,MM,1592518690,72,21.47,95.38,80.6,14.36
142,Thaton,100,MM,1592518691,89,16.92,97.37,77.32,2.86
143,Baykit,42,RU,1592518692,60,61.67,96.37,56.34,3.47
144,Arraial do Cabo,13,BR,1592518693,78,-22.97,-42.03,73.4,13.87
145,‘Ewa Beach,40,US,1592518694,54,21.32,-158.01,84.2,20.8
146,Quatre Cocos,75,MU,1592518695,83,-20.21,57.76,70.0,13.87
147,Henties Bay,0,NA,1592518697,38,-22.12,14.28,73.0,11.07
148,Bilibino,2,RU,1592518698,31,68.05,166.44,73.4,7.31
149,High Rock,75,BS,1592518699,88,26.62,-78.28,77.0,20.8
150,Fort Nelson,75,CA,1592518500,47,58.81,-122.7,75.2,3.36
151,Mount Gambier,41,AU,1592518701,71,-37.83,140.77,51.8,14.99
152,Thompson,90,CA,1592518702,100,55.74,-97.86,39.2,11.41
153,Nanortalik,87,GL,1592518703,82,60.14,-45.24,39.76,6.31
154,Karibib,0,NA,1592518705,39,-21.93,15.83,56.84,12.8
155,Acapulco de Juárez,5,MX,1592518691,70,16.86,-99.89,87.8,12.75
156,Takoradze,100,GH,1592518707,86,4.88,-1.76,77.34,7.74
157,Lenger,0,KZ,1592518708,39,42.18,69.88,64.4,6.71
158,Ilulissat,90,GL,1592518709,100,69.22,-51.1,33.8,4.7
159,Abhā,100,SA,1592518710,46,18.22,42.51,75.2,3.56
160,Tucuruí,42,BR,1592518588,75,-3.77,-49.67,78.4,3.71
161,Ahipara,21,NZ,1592518713,72,-35.17,173.17,54.93,11.14
162,Hue,20,VN,1592518714,94,16.47,107.6,78.8,2.24
163,Vila Velha,3,BR,1592518597,83,-20.33,-40.29,71.6,3.96
164,Saint-Augustin,100,CA,1592518716,96,51.23,-58.65,57.43,4.0
165,Uíge,0,AO,1592518717,42,-7.61,15.06,64.33,1.9
166,Úvaly,99,CZ,1592518719,87,50.07,14.73,62.01,8.05
167,Chui,37,UY,1592518720,83,-33.7,-53.46,58.91,10.25
168,Chumikan,100,RU,1592518721,93,54.72,135.31,40.05,5.68
169,Flin Flon,90,CA,1592518722,86,54.77,-101.86,41.0,12.75
170,Murbād,90,IN,1592518723,94,19.25,73.4,80.6,6.93
171,Vicksburg,1,US,1592518724,40,32.35,-90.88,89.6,3.36
172,Buritizeiro,1,BR,1592518726,60,-17.35,-44.96,67.33,3.65
173,Innisfail,96,AU,1592518727,97,-17.53,146.03,62.01,5.99
174,Pangnirtung,90,CA,1592518728,93,66.15,-65.71,35.6,13.87
175,Tombouctou,97,ML,1592518729,13,20.0,-3.0,100.13,6.69
176,Airai,78,TL,1592518730,100,-8.93,125.41,58.95,4.81
177,Los Llanos de Aridane,9,ES,1592518731,73,28.66,-17.92,71.6,14.99
178,Camacha,20,PT,1592518732,88,33.08,-16.33,68.0,6.93
179,Batemans Bay,8,AU,1592518734,100,-35.72,150.18,41.0,5.57
180,Kathmandu,75,NP,1592518595,100,27.72,85.32,69.8,2.24
181,Poronaysk,100,RU,1592518736,94,49.22,143.12,46.38,9.86
182,São Filipe,0,CV,1592518737,63,14.9,-24.5,80.28,13.56
183,Karakol,100,KG,1592518738,73,42.49,78.39,50.04,2.3
184,Salalah,40,OM,1592518739,88,17.02,54.09,82.4,4.7
185,Kavaratti,99,IN,1592518741,79,10.57,72.64,84.42,17.05
186,Wahiawā,90,US,1592518452,65,21.5,-158.02,91.4,9.17
187,Mahibadhoo,65,MV,1592518743,74,3.78,72.97,84.0,5.21
188,Chincholi,100,IN,1592518744,82,17.47,77.43,76.08,12.21
189,Alugan,91,PH,1592518745,87,12.22,125.48,76.98,4.65
190,Brae,86,GB,1592518746,93,60.4,-1.35,51.8,10.29
191,Tuatapere,17,NZ,1592518747,83,-46.13,167.68,39.0,3.0
192,Jørpeland,40,NO,1592518534,88,59.02,6.04,64.0,4.7
193,Pacific Grove,1,US,1592518750,20,36.62,-121.92,84.2,13.87
194,Pisco,75,PE,1592518751,77,-13.7,-76.22,66.2,13.87
195,Nioro,11,GM,1592518752,56,13.35,-15.75,85.8,13.78
196,Buchanan,75,LR,1592518753,94,5.88,-10.05,78.8,5.82
197,Mēga,71,ET,1592518754,75,4.05,38.3,62.15,10.31
198,La Ronge,90,CA,1592518755,35,55.1,-105.28,57.2,12.75
199,Deputatsky,33,RU,1592518757,41,69.3,139.9,74.88,3.18
200,Boyolangu,58,ID,1592518758,88,-8.12,111.89,75.92,7.9
201,Giohar,97,SO,1592518759,80,2.78,45.5,75.51,12.64
202,Sussex,40,US,1592518760,65,41.18,-74.67,79.0,5.82
203,Severo-Kuril'sk,81,RU,1592518761,84,50.68,156.12,43.48,8.34
204,Mayo,1,US,1592518687,57,38.89,-76.51,80.01,8.05
205,San Carlos,100,VE,1592518559,93,9.66,-68.58,76.55,0.29
206,Carutapera,78,BR,1592518764,93,-1.2,-46.02,75.96,7.94
207,Ābyek,0,IR,1592518765,55,36.07,50.55,84.2,2.57
208,Tranås,0,SE,1592518767,72,58.04,14.98,64.4,2.24
209,Ingham,1,US,1592518768,35,42.6,-84.38,84.2,3.36
210,Dudinka,85,RU,1592518769,70,69.41,86.18,44.6,13.42
211,Omsukchan,97,RU,1592518770,39,62.53,155.8,67.12,3.24
212,Kangāvar,0,IR,1592518771,28,34.5,47.97,64.11,1.79
213,Ancud,75,CL,1592518687,93,-41.87,-73.82,48.2,11.41
214,Taywarah,0,AF,1592518773,43,33.35,64.42,51.85,5.37
215,Valkeakoski,0,FI,1592518774,87,61.26,24.03,59.0,1.12
216,Simao,100,CN,1592518776,96,22.79,100.97,65.91,2.46
217,Otane,100,NZ,1592518777,91,-39.88,176.63,57.02,9.24
218,Palembang,100,ID,1592518778,95,-2.92,104.75,73.99,3.24
219,Coquimbo,100,CL,1592518779,82,-29.95,-71.34,57.2,4.7
220,Mandalgovi,98,MN,1592518780,26,45.76,106.27,68.99,10.78
221,Wonogiri,3,ID,1592518782,87,-7.81,110.93,73.78,3.49
222,Padang,96,ID,1592518783,78,-0.95,100.35,77.49,3.38
223,Kirensk,0,RU,1592518784,84,57.79,108.11,50.23,3.56
224,Aden,52,YE,1592518584,70,12.78,45.04,87.13,10.58
225,Villa Juárez,5,MX,1592518786,35,24.65,-107.54,98.6,17.22
226,North Bend,1,US,1592518787,77,43.41,-124.22,73.0,26.4
227,Half Moon Bay,1,US,1592518788,77,37.46,-122.43,91.99,9.17
228,Lorengau,30,PG,1592518790,75,-2.02,147.27,84.15,8.46
229,Souillac,75,MU,1592518791,83,-20.52,57.52,69.8,13.87
230,Santoña,75,ES,1592518792,77,43.44,-3.46,62.6,2.24
231,Russell,40,US,1592518793,45,32.35,-85.2,86.0,3.6
232,Homer,90,US,1592518672,76,59.64,-151.55,53.6,12.75
233,Kamenka,0,RU,1592518795,77,51.32,42.77,68.0,3.0
234,Chicama,10,PE,1592518796,67,-7.84,-79.15,69.21,8.05
235,Monrovia,75,LR,1592518798,94,6.3,-10.8,78.8,5.82
236,Tagusao,66,PH,1592518799,78,9.19,117.81,80.37,4.36
237,Klaksvík,100,FO,1592518800,93,62.23,-6.59,50.0,5.82
238,Dubbo,69,AU,1592518801,87,-32.25,148.62,50.0,12.75
239,Cururupu,63,BR,1592518802,95,-1.83,-44.87,74.98,4.27
240,Aldan,98,RU,1592518804,76,58.6,125.39,59.63,5.1
241,Santa Cruz,0,MA,1592518590,73,30.42,-9.6,69.8,14.99
242,Kendari,83,ID,1592518806,95,-3.94,122.5,73.56,4.63
243,Kuril'sk,85,RU,1592518807,90,45.23,147.88,50.27,4.34
244,Bethel,1,US,1592518751,69,41.37,-73.41,79.0,8.05
245,Dingle,100,PH,1592518809,95,11.0,122.67,74.88,8.95
246,Honiara,20,SB,1592518810,88,-9.43,159.95,77.0,2.24
247,Geraldton,0,AU,1592518812,87,-28.77,114.6,50.0,10.29
248,Agirish,37,RU,1592518813,78,61.92,63.02,37.11,0.67
249,Soc Trang,100,VN,1592518814,86,9.6,105.98,79.77,4.29
250,Hasaki,75,JP,1592518815,100,35.73,140.83,66.0,6.93
251,Zabul Province,0,AF,1592518816,22,32.25,67.25,67.01,3.6
252,Lasem,38,ID,1592518817,88,-6.69,111.45,76.21,5.86
253,Norman Wells,75,CA,1592518819,34,65.28,-126.83,78.8,10.29
254,Mariental,0,NA,1592518820,41,-24.63,17.97,54.91,12.77
255,Tasiilaq,100,GL,1592518821,75,65.61,-37.64,42.8,47.2
256,Okhotsk,92,RU,1592518822,88,59.38,143.3,47.21,2.66
257,Port Moresby,40,PG,1592518823,94,-9.44,147.18,73.4,5.82
258,Province of Mantua,59,IT,1592518824,73,45.17,10.78,66.99,3.0
259,Swan River,100,CA,1592518825,89,52.11,-101.27,45.95,7.31
260,Carballo,5,ES,1592518826,89,43.21,-8.69,55.0,1.01
261,Plettenberg Bay,0,ZA,1592518827,44,-34.05,23.37,62.49,8.12
262,Purpe,12,RU,1592518828,74,64.48,76.69,42.01,14.97
263,Taiyuan,73,CN,1592518830,68,37.87,112.56,66.2,2.24
264,Imeni Zhelyabova,20,RU,1592518831,97,58.95,36.6,64.65,7.14
265,Tchibanga,97,GA,1592518832,94,-2.85,11.03,69.67,2.37
266,Turinskaya Sloboda,24,RU,1592518833,73,57.62,64.39,39.72,3.53
267,Taitung City,100,TW,1592518817,83,22.76,121.14,77.0,4.7
268,Haines Junction,100,CA,1592518835,56,60.75,-137.51,56.89,4.65
269,Salym,23,RU,1592518836,79,60.06,71.48,37.44,7.4
270,San Jose,40,US,1592518590,15,37.34,-121.89,93.99,13.87
271,Praia da Vitória,20,PT,1592518839,77,38.73,-27.07,68.0,5.17
272,Juneau,90,US,1592518740,87,58.3,-134.42,53.6,3.85
273,Boguchany,48,RU,1592518841,66,58.38,97.45,54.01,6.93
274,Grand Gaube,98,MU,1592518842,77,-20.01,57.66,70.0,5.99
275,Aklavik,40,CA,1592518804,67,68.22,-135.01,60.8,5.82
276,Ürümqi,57,CN,1592518558,46,43.8,87.6,69.8,6.71
277,Kiryat Gat,8,IL,1592518846,80,31.61,34.76,73.99,5.61
278,Umluj,1,SA,1592518847,60,25.02,37.27,81.03,8.68
279,Campoverde,40,PE,1592518848,58,-8.48,-74.81,87.8,4.7
280,Ucar,40,AZ,1592518849,52,40.52,47.65,69.8,8.05
281,Kirakira,44,SB,1592518850,78,-10.45,161.92,82.53,10.49
282,Talnakh,94,RU,1592518851,81,69.49,88.4,42.8,13.42
283,Lincoln,90,US,1592518801,73,40.8,-96.67,75.2,14.99
284,Celestún,51,MX,1592518853,63,20.87,-90.4,86.05,9.06
285,Provideniya,2,RU,1592518855,62,64.38,-173.3,57.2,8.95
286,Williams Lake,75,CA,1592518856,33,52.14,-122.14,71.6,5.82
287,Kahului,20,US,1592518857,41,20.89,-156.47,91.4,24.16
288,Larreynaga,40,NI,1592518858,74,12.68,-86.57,84.2,4.7
289,Tabas,0,IR,1592518859,15,33.6,56.92,89.6,4.7
290,Saldanha,0,ZA,1592518860,66,-33.01,17.94,53.6,4.7
291,Blagoyevo,96,RU,1592518861,70,63.37,47.92,51.03,5.53
292,Mossamedes,3,AO,1592518863,63,-15.2,12.15,72.03,7.65
293,Canyon,91,US,1592518864,25,34.98,-101.92,91.99,3.0
294,Kuito,0,AO,1592518865,64,-12.38,16.93,49.53,3.06
295,Turka,31,UA,1592518866,84,49.15,23.03,60.01,2.89
296,Longyearbyen,40,SJ,1592518867,61,78.22,15.64,46.4,6.93
297,Iralaya,75,HN,1592518868,74,15.0,-83.23,86.0,8.05
298,Katsuura,75,JP,1592518870,100,35.13,140.3,64.4,4.7
299,Banjar,40,ID,1592518871,94,-8.19,114.97,80.6,14.99
300,Clyde River,90,CA,1592518872,86,70.47,-68.59,33.8,10.29
301,Naze,75,JP,1592518873,74,28.37,129.48,84.2,16.11
302,Back Mountain,15,US,1592518874,87,41.34,-76.0,79.0,5.64
303,Zheleznodorozhnyy,0,RU,1592518875,88,55.75,38.0,73.0,6.71
304,Saint George,1,US,1592518627,9,37.1,-113.58,89.6,10.29
305,Ambanja,30,MG,1592518878,71,-13.68,48.45,70.34,3.4
306,Buala,7,SB,1592518879,73,-8.14,159.59,83.62,4.97
307,Evanston,1,US,1592518789,28,42.04,-87.69,84.99,10.29
308,Phek,100,IN,1592518881,100,25.67,94.5,61.77,1.61
309,Sol'-Iletsk,0,RU,1592518882,69,51.16,54.99,54.5,12.62
310,Blythe,1,US,1592518883,13,33.61,-114.6,102.2,11.41
311,Coyhaique,90,CL,1592518885,75,-45.58,-72.07,44.6,3.36
312,Wakimachi,75,JP,1592518886,100,34.07,134.15,66.2,3.36
313,Usol'ye-Sibirskoye,99,RU,1592518887,61,52.75,103.65,53.98,8.68
314,Bend,1,US,1592518879,15,44.06,-121.32,78.8,6.93
315,San Fernando del Valle de Catamarca,74,AR,1592518848,43,-28.47,-65.79,66.0,4.0
316,Quito,40,EC,1592518861,68,-0.23,-78.52,64.4,11.41
317,Pimenta Bueno,73,BR,1592518892,69,-11.67,-61.19,77.25,2.04
318,Batagay,0,RU,1592518893,28,67.63,134.63,81.01,1.48
319,Lompoc,1,US,1592518894,72,34.64,-120.46,69.01,13.87
320,Samarai,49,PG,1592518895,83,-10.62,150.67,79.45,15.66
321,Ulladulla,0,AU,1592518897,100,-35.35,150.47,46.0,6.22
322,Ust'-Koksa,10,RU,1592518898,81,50.27,85.61,44.19,1.43
323,Kenora,75,CA,1592518899,73,49.82,-94.43,73.4,14.99
324,Timmins,20,CA,1592518606,33,48.47,-81.33,87.8,5.82
325,San Patricio,5,MX,1592518901,79,19.22,-104.7,84.2,13.87
326,Yar-Sale,27,RU,1592518903,79,66.83,70.83,37.02,12.03
327,Sarapul,0,RU,1592518904,87,56.48,53.8,45.0,0.54
328,Alekseyevka,17,RU,1592518905,87,50.63,38.69,66.31,7.99
329,Mahébourg,75,MU,1592518906,83,-20.41,57.7,69.8,13.87
330,Río Gallegos,75,AR,1592518907,100,-51.62,-69.22,37.4,4.7
331,Port Blair,99,IN,1592518908,83,11.67,92.75,82.6,12.12
332,Shchors,94,UA,1592518909,91,51.82,31.95,63.46,2.66
333,Kousséri,67,CM,1592518911,70,12.08,15.03,84.2,4.7
334,Hay River,20,CA,1592518912,41,60.82,-115.8,77.0,8.05
335,Bonavista,100,CA,1592518913,81,48.65,-53.11,55.0,3.0
336,Biggar,90,GB,1592518796,87,55.62,-3.52,55.99,3.0
337,Vostok,95,RU,1592518915,100,46.49,135.88,48.33,2.55
338,Menongue,0,AO,1592518916,66,-14.66,17.69,50.16,4.76
339,Murchison,90,NZ,1592518670,78,-41.8,172.33,49.15,1.45
340,Richards Bay,100,ZA,1592518918,81,-28.78,32.04,58.41,3.67
341,Sukhoy Log,1,RU,1592518920,73,56.91,62.03,40.89,4.14
342,Fairbanks,1,US,1592518802,31,64.84,-147.72,75.0,3.36
343,Beira,75,MZ,1592518922,93,-19.84,34.84,66.2,10.29
344,Benghazi,0,LY,1592518923,48,32.12,20.07,75.6,3.62
345,Siliguri,100,IN,1592518924,94,26.7,88.43,75.81,6.06
346,Alihe,91,CN,1592518925,93,50.57,123.72,54.54,2.8
347,Suzun,95,RU,1592518926,96,53.78,82.31,53.73,7.58
348,Portland,1,US,1592518494,31,45.52,-122.68,79.0,5.82
349,Kudahuvadhoo,91,MV,1592518929,72,2.67,72.89,84.0,3.06
350,Lata,0,PT,1592518930,86,40.16,-8.33,61.0,3.13
351,Jumla,67,NP,1592518931,71,29.27,82.18,60.66,0.27
352,Maracaibo,59,VE,1592518830,71,10.63,-71.64,85.44,9.78
353,Tamandaré,17,BR,1592518933,83,-8.76,-35.1,77.65,11.18
354,Hambantota,75,LK,1592518934,100,6.12,81.12,78.8,6.93
355,Sabang,78,ID,1592518935,74,5.89,95.32,82.85,9.28
356,Winslow,1,US,1592518936,9,35.02,-110.7,91.4,14.99
357,Port-Cartier,75,CA,1592518937,54,50.03,-66.87,80.6,8.05
358,Ponta Delgada,75,PT,1592518939,72,37.73,-25.67,64.4,5.82
359,Nizhniy Tsasuchey,38,RU,1592518940,72,50.52,115.13,62.82,10.4
360,Boundiali,100,CI,1592518941,85,9.52,-6.49,75.42,7.96
361,Champerico,40,GT,1592518942,70,14.3,-91.92,87.8,9.17
362,Maun,0,BW,1592518943,50,-19.98,23.42,53.6,9.17
363,Narsaq,75,GL,1592518944,73,60.92,-46.05,44.6,12.75
364,Siavonga,63,ZM,1592518945,53,-16.54,28.71,65.46,3.2
365,Tārāpur,86,IN,1592518947,82,19.85,72.7,83.12,11.88
366,San Francisco,20,US,1592518685,28,37.77,-122.42,82.4,17.22
367,Ségou,85,ML,1592518949,32,13.43,-6.22,96.24,9.4
368,Labuhan,6,ID,1592518950,88,-6.88,112.21,76.69,7.67
369,Ternate,92,ID,1592518951,79,0.8,127.4,80.35,3.71
370,Departamento de Maldonado,20,UY,1592518952,93,-34.67,-54.92,57.99,6.93
371,Chapleau,5,CA,1592518954,25,47.84,-83.4,84.2,10.29
372,Vadinsk,0,RU,1592518955,90,53.69,43.06,58.12,10.56
373,Sainte-Maxime,0,FR,1592518956,55,43.3,6.63,68.0,6.93
374,Santa Maria,75,BR,1592518957,69,-29.68,-53.81,75.2,4.7
375,Lewisporte,90,CA,1592518958,93,49.25,-55.05,64.99,5.82
376,Hamilton,20,US,1592518960,78,39.18,-84.53,80.01,3.36
377,Kirishi,0,RU,1592518961,99,59.45,32.02,63.0,4.32
378,Puerto Guzmán,93,CO,1592518962,70,0.97,-76.59,81.5,2.33
379,Olafsvik,99,IS,1592518963,76,64.89,-23.71,48.94,13.65
380,Mount Isa,0,AU,1592518964,72,-20.73,139.5,66.2,5.82
381,Matadi,68,CD,1592518965,85,-5.82,13.45,72.21,3.27
382,Artesia,40,US,1592518967,68,33.87,-118.08,77.0,6.93
383,Tazovsky,0,RU,1592518968,77,67.47,78.7,37.11,11.23
384,Vardø,75,NO,1592518865,65,70.37,31.11,46.4,17.22
385,Kupang,20,ID,1592518970,83,-10.17,123.58,75.2,8.05
386,Usogorsk,91,RU,1592518745,73,63.41,48.69,50.74,5.21
387,Isangel,75,VU,1592518972,69,-19.55,169.27,78.8,13.65
388,Liwale,18,TZ,1592518973,69,-9.77,37.93,65.46,5.93
389,Fredericton,1,CA,1592518975,31,45.95,-66.67,91.4,16.11
390,Baker City,90,US,1592518976,31,44.77,-117.83,75.2,5.82
391,Bluefield,90,US,1592518977,100,37.27,-81.22,68.0,3.18
392,Jinchang,75,CN,1592518978,26,38.5,102.17,71.47,3.76
393,Maroantsetra,100,MG,1592518979,86,-15.43,49.73,70.56,14.99
394,Ormara,13,PK,1592518980,84,25.21,64.64,83.82,7.16
395,Chifeng,46,CN,1592518982,58,42.27,118.96,67.55,4.54
396,Manadhoo,27,MV,1592518983,75,5.77,73.38,83.5,8.19
397,Rio Grande,0,BR,1592518922,96,-32.03,-52.1,61.0,1.01
398,Laas,75,IT,1592518985,87,46.62,10.7,48.2,8.05
399,Laguna,1,US,1592518796,11,38.42,-121.42,96.01,6.93
400,Kajaani,90,FI,1592518987,93,64.23,27.73,57.2,10.29
401,Pervomayskoye,64,RU,1592518988,66,43.92,46.71,67.86,8.68
402,Penzance,100,GB,1592518990,87,50.12,-5.54,59.0,13.87
403,Port Augusta,0,AU,1592518991,50,-32.5,137.77,55.4,17.22
404,Arnedo,69,ES,1592518992,77,42.22,-2.1,66.2,5.82
405,Kalianget,0,ID,1592518993,76,-7.05,113.93,81.16,14.99
406,Keetmanshoop,0,NA,1592518831,36,-26.58,18.13,57.2,8.05
407,Mangla,2,PK,1592518995,11,31.89,72.38,95.67,7.83
408,Bac Lieu,100,VN,1592518997,84,9.29,105.72,81.18,6.87
409,Bom Jesus,0,BR,1592518998,56,-9.07,-44.36,73.8,2.98
410,Ketchikan,90,US,1592518999,100,55.34,-131.65,57.2,32.21
411,Askarovo,20,RU,1592519000,70,53.34,58.51,44.6,6.71
412,Lagoa,0,PT,1592519001,89,39.05,-27.98,64.6,11.21
413,Guerrero Negro,1,MX,1592519002,50,27.98,-114.06,72.7,17.13
414,Rheinbach,0,DE,1592519004,92,50.63,6.95,60.01,4.68
415,Rørvik,0,NO,1592518821,86,64.86,11.24,52.36,14.45
416,Yangi Marg`ilon,41,UZ,1592519006,45,40.43,71.72,68.0,6.93
417,Myitkyina,100,MM,1592519007,97,25.38,97.4,75.36,0.78
418,Bubaque,16,GW,1592519008,84,11.28,-15.83,81.54,15.41
419,Nioki,72,CD,1592518815,49,-2.72,17.68,71.53,1.32
420,Tateyama,75,JP,1592519010,100,34.98,139.87,64.4,4.7
421,Nagua,20,DO,1592519012,74,19.38,-69.85,86.0,17.22
422,Iqaluit,75,CA,1592519013,60,63.75,-68.51,41.0,17.22
423,Byron Bay,75,AU,1592518975,93,-28.65,153.62,59.0,8.05
424,Dvinskoy Bereznik,49,RU,1592519015,60,62.86,42.71,57.13,7.61
425,Zheshart,43,RU,1592519016,77,62.07,49.57,49.1,3.2
426,Yulara,0,AU,1592519017,48,-25.24,130.99,41.0,5.82
427,Cravo Norte,100,CO,1592519018,93,6.3,-70.2,75.45,5.01
428,Martapura,40,ID,1592519020,100,-3.42,114.85,77.0,1.12
429,Port Said,20,EG,1592519021,78,31.26,32.28,75.2,12.75
430,Gurupá,54,BR,1592519022,73,-1.41,-51.64,79.97,3.4
431,Pangody,0,RU,1592519024,77,65.85,74.49,37.33,10.02
432,Strășeni,52,MD,1592519025,82,47.14,28.61,66.2,5.82
433,South Lake Tahoe,1,US,1592518742,25,38.93,-119.98,77.0,8.05
434,Kalininsk,0,RU,1592519027,94,51.5,44.48,62.91,9.73
435,Bengkulu,99,ID,1592519028,89,-3.8,102.27,75.2,4.56
436,Mathbaria,100,BD,1592519029,88,22.29,89.96,81.05,5.28
437,Jishou,96,CN,1592519030,92,28.32,109.72,69.57,0.47
438,Auki,2,SB,1592519032,74,-8.77,160.7,83.08,2.95
439,Igarka,100,RU,1592518863,63,67.47,86.58,44.33,10.67
440,Shinjō,75,JP,1592519034,77,38.76,140.3,69.8,11.41
441,Lufilufi,95,WS,1592519035,94,-13.87,-171.6,75.0,4.0
442,Nassau,40,US,1592519037,73,40.75,-73.58,75.99,6.93
443,Kidal,0,ML,1592519038,10,18.44,1.41,93.47,9.71
444,Yinchuan,97,CN,1592519039,28,38.47,106.27,77.0,4.0
445,San Roque,0,ES,1592519040,64,36.21,-5.38,68.0,17.22
446,Kologriv,0,RU,1592519041,80,58.83,44.32,50.59,4.76
447,Siocon,100,PH,1592519042,81,7.71,122.14,79.36,3.56
448,Tura,100,IN,1592519044,99,25.52,90.22,74.3,4.21
449,Hatillo,4,PR,1592519045,86,18.49,-66.83,82.99,20.11
450,Stephenville,75,US,1592518890,38,32.22,-98.2,93.2,10.29
451,Seoul,90,KR,1592518795,88,37.57,126.98,71.6,5.82
452,Solnechnyy,100,RU,1592519048,93,50.72,136.63,44.71,6.26
453,Bensonville,75,LR,1592519049,94,6.45,-10.61,78.8,5.82
454,Beringovskiy,0,RU,1592519050,51,63.05,179.32,51.31,2.75
455,Stokmarknes,33,NO,1592519052,77,68.56,14.91,48.0,13.0
456,Takaka,100,NZ,1592519053,73,-40.85,172.8,57.0,10.0
457,Balkanabat,0,TM,1592519054,13,39.51,54.37,86.32,17.43
458,Arlit,0,NE,1592519055,10,18.74,7.39,92.79,3.49
459,Santo Antônio do Sudoeste,18,BR,1592519056,94,-26.07,-53.73,65.19,3.65
460,Yatou,76,CN,1592519057,78,37.15,122.38,68.63,5.14
461,Kamen'-na-Obi,92,RU,1592519058,94,53.79,81.34,53.17,8.32
462,Avera,75,US,1592519059,48,33.19,-82.53,84.2,4.7
463,Qaqortoq,75,GL,1592519005,81,60.72,-46.03,44.6,12.75
464,Poum,99,NC,1592519062,76,-20.23,164.02,74.37,14.0
465,Gusau,85,NG,1592519063,71,12.16,6.66,79.74,9.22
466,Nurlat,0,RU,1592519043,84,54.43,50.81,49.28,6.55
467,Svetlaya,97,RU,1592519065,82,46.54,138.33,53.29,5.91
468,Aksu,100,CN,1592519066,25,41.12,80.26,76.12,3.29
469,Puerto Colombia,40,CO,1592519067,66,10.99,-74.95,87.8,6.93
470,Port Macquarie,72,AU,1592519068,98,-31.43,152.92,55.0,2.51
471,Kyren,99,RU,1592519070,77,51.68,102.14,58.41,1.66
472,Husavik,75,IS,1592519071,71,66.04,-17.34,53.6,12.75
473,Disna,49,BY,1592519072,92,55.57,28.2,65.52,6.6
474,Recke,93,DE,1592519073,93,52.38,7.72,62.6,2.24
475,Faanui,100,PF,1592519074,77,-16.48,-151.75,79.9,1.19
476,Foumban,100,CM,1592519075,99,5.73,10.9,64.26,1.79
477,Zhigalovo,0,RU,1592519076,70,54.81,105.16,49.71,3.94
478,Terrace,90,CA,1592518778,93,54.52,-128.6,57.2,12.75
479,Bambanglipuro,21,ID,1592519079,86,-7.95,110.28,77.05,11.12
480,Berlevåg,75,NO,1592519080,87,70.86,29.09,42.8,17.22
481,Tinskoy,83,RU,1592519081,80,56.15,96.92,57.56,4.59
482,Macapá,40,BR,1592519082,100,0.04,-51.07,78.8,3.36
483,Chimbote,6,PE,1592518851,75,-9.09,-78.58,66.11,8.99
484,Blackwater,3,AU,1592519085,81,-23.58,148.88,60.71,11.68
485,Hutang,38,CN,1592519086,98,31.53,119.48,64.0,1.01
486,Yumen,9,CN,1592519087,25,40.28,97.2,66.34,1.83
487,Kloulklubed,75,PW,1592519088,88,7.04,134.26,78.8,4.7
488,Caucaia,75,BR,1592518865,74,-3.74,-38.65,82.4,10.29
489,Salaspils,40,LV,1592519091,88,56.86,24.37,70.0,3.36
490,Merauke,77,ID,1592519092,76,-8.47,140.33,79.16,16.44
491,Inongo,84,CD,1592519093,55,-1.95,18.27,70.45,4.14
492,Borba,97,BR,1592519094,68,-4.39,-59.59,82.87,1.41
493,Gogrial,100,SS,1592519095,87,8.53,28.1,71.71,2.66
494,Aswān,14,EG,1592519096,17,24.09,32.91,86.0,20.8
495,Zhezkazgan,73,KZ,1592519097,74,47.8,67.71,62.74,14.79
496,Itarema,23,BR,1592519098,79,-2.92,-39.92,78.89,11.34
497,Arrondissement de Nevers,41,FR,1592519100,82,46.92,3.33,55.4,4.7
498,Gračac,20,HR,1592519101,88,44.3,15.85,66.99,3.36
499,Libreville,40,GA,1592519102,83,0.39,9.45,78.8,9.17
500,Sur,1,OM,1592519103,70,22.57,59.53,84.11,13.8
501,San Policarpo,94,PH,1592519104,86,12.18,125.51,77.41,4.68
502,Kimbe,3,PG,1592519105,76,-5.55,150.14,80.65,4.29
503,Villa Altagracia,20,DO,1592518871,66,18.67,-70.17,87.8,11.41
504,Orikum,34,AL,1592519108,63,40.33,19.47,71.37,4.97
505,Linjiang,0,CN,1592519109,77,41.81,126.91,62.51,0.74
506,Nador,10,MA,1592519110,53,35.17,-2.93,73.4,8.05
507,Corinth,20,GR,1592519111,53,37.94,22.96,77.0,10.87
508,Mosquera,90,CO,1592519112,93,4.71,-74.23,55.4,8.05
509,Palmdale,1,US,1592519114,9,34.58,-118.12,91.4,4.7
510,Benguela,0,AO,1592519115,76,-12.58,13.41,71.01,3.13
511,Victor Harbor,0,AU,1592519116,51,-35.57,138.62,59.0,3.0
512,Preiļi,47,LV,1592519117,93,56.29,26.72,65.61,5.7
513,Tromsø,75,NO,1592519118,75,69.65,18.96,44.6,16.11
514,Maïné Soroa,46,NE,1592519119,39,13.21,12.02,88.32,6.22
515,Taoudenni,21,ML,1592519121,10,22.68,-3.98,102.7,10.51
516,Zonguldak,22,TR,1592518955,92,41.25,31.83,58.23,4.12
517,Taksimo,92,RU,1592519123,84,56.34,114.88,50.41,4.59
518,San Quintín,0,MX,1592518836,61,30.48,-115.95,66.94,11.59
519,Naranjito,75,EC,1592519125,65,-2.22,-79.48,82.4,4.7
520,Hobyo,82,SO,1592519126,74,5.35,48.53,78.98,26.89
521,Ruidoso,1,US,1592519128,8,33.33,-105.67,84.99,18.34
522,Forssa,0,FI,1592519129,89,60.81,23.62,60.01,1.01
523,Flinders,8,AU,1592519130,91,-34.58,150.86,51.01,1.01
524,Puerto Escondido,90,MX,1592519131,79,15.85,-97.07,86.0,9.17
525,Yerbogachën,92,RU,1592519132,62,61.28,108.01,57.78,1.83
526,Äänekoski,0,FI,1592519133,100,62.69,25.82,57.0,2.24
527,Esperance,40,AU,1592519134,100,-33.87,121.9,46.4,10.29
528,Konstantinovka,100,RU,1592519135,84,49.62,127.98,57.7,3.6
529,Bogotol,96,RU,1592519136,98,56.21,89.53,54.55,9.95
530,Havelock,25,US,1592518988,67,34.88,-76.9,78.01,7.0
531,Abapó,1,BO,1592519139,57,-18.83,-63.47,72.86,2.91
532,Harar,100,ET,1592519140,90,9.31,42.13,58.46,3.8
533,Alofi,40,NU,1592519141,61,-19.06,-169.92,77.0,21.92
534,Kenai,40,US,1592519143,59,60.55,-151.26,60.8,10.29
535,Harrison,1,US,1592519144,48,30.41,-89.04,86.0,9.17
536,Saint-Joseph,75,RE,1592519056,77,-21.37,55.62,69.8,23.04
537,Beloha,3,MG,1592519146,83,-25.17,45.05,63.36,12.82
